{"locations": [{"name": "New York", "latitude": "40.7127281", "longitude": "-74.0060152"}, {"name": "Sydney", "latitude": "-33.8548157", "longitude": "151.2164539"}, {"name": "London", "latitude": "51.5073219", "longitude": "-0.1276474"}, {"name": "Zurich", "latitude": "47.3723941", "longitude": "8.5423328"}, {"name": "Brisbane", "latitude": "-27.4689682", "longitude": "153.0234991"}, {"name": "Melbourne", "latitude": "-37.8142176", "longitude": "144.9631608"}]}